{"type":"FeatureCollection","features":[{"type":"Feature","geometry":{"type":"Point","coordinates":[-99.14177,19.54077]},"properties":{"alcaldia_municipio":"Gustavo A. Madero","es_cetram":false,"jerarquia_transporte":"masivo_mediano","linea_id":111,"nombre":"Campos Revolución","nombre_cetram":null,"num_comercial":"1","sistema":"CBB","tipo":"Elevado","tipo_entidad":"estacion"}},{"type":"Feature","geometry":{"type":"Point","coordinates":[-99.21301,19.39969]},"properties":{"alcaldia_municipio":"Miguel Hidalgo","es_cetram":false,"jerarquia_transporte":"masivo_mediano","linea_id":2,"nombre":"Charrería","nombre_cetram":null,"num_comercial":"3","sistema":"CBB","tipo":"Elevado","tipo_entidad":"estacion"}},{"type":"Feature","geometry":{"type":"Point","coordinates":[-99.22905,19.39121]},"properties":{"alcaldia_municipio":"Álvaro Obregón","es_cetram":false,"jerarquia_transporte":"masivo_mediano","linea_id":2,"nombre":"Cineteca Nacional/Bodega de Arte","nombre_cetram":null,"num_comercial":"3","sistema":"CBB","tipo":"Elevado","tipo_entidad":"estacion"}},{"type":"Feature","geometry":{"type":"Point","coordinates":[-99.06265,19.34503]},"properties":{"alcaldia_municipio":"Iztapalapa","es_cetram":false,"jerarquia_transporte":"masivo_mediano","linea_id":110,"nombre":"Constitución de 1917","nombre_cetram":null,"num_comercial":"2","sistema":"CBB","tipo":"Elevado","tipo_entidad":"estacion"}},{"type":"Feature","geometry":{"type":"Point","coordinates":[-99.13398,19.55783]},"properties":{"alcaldia_municipio":"Gustavo A. Madero","es_cetram":false,"jerarquia_transporte":"masivo_mediano","linea_id":111,"nombre":"Cuautepec","nombre_cetram":null,"num_comercial":"1","sistema":"CBB","tipo":"Elevado","tipo_entidad":"estacion"}},{"type":"Feature","geometry":{"type":"Point","coordinates":[-99.12257,19.49631]},"properties":{"alcaldia_municipio":"Gustavo A. Madero","es_cetram":false,"jerarquia_transporte":"masivo_mediano","linea_id":111,"nombre":"Indios Verdes","nombre_cetram":null,"num_comercial":"1","sistema":"CBB","tipo":"Elevado","tipo_entidad":"estacion"}},{"type":"Feature","geometry":{"type":"Point","coordinates":[-99.14039,19.52765]},"properties":{"alcaldia_municipio":"Gustavo A. Madero","es_cetram":false,"jerarquia_transporte":"masivo_mediano","linea_id":111,"nombre":"La Pastora","nombre_cetram":null,"num_comercial":"1","sistema":"CBB","tipo":"Elevado","tipo_entidad":"estacion"}},{"type":"Feature","geometry":{"type":"Point","coordinates":[-99.03079,19.33183]},"properties":{"alcaldia_municipio":"Iztapalapa","es_cetram":false,"jerarquia_transporte":"masivo_mediano","linea_id":110,"nombre":"Las Torres Buenavista","nombre_cetram":null,"num_comercial":"2","sistema":"CBB","tipo":"Elevado","tipo_entidad":"estacion"}},{"type":"Feature","geometry":{"type":"Point","coordinates":[-99.00857,19.34078]},"properties":{"alcaldia_municipio":"Iztapalapa","es_cetram":false,"jerarquia_transporte":"masivo_mediano","linea_id":110,"nombre":"Lomas de la Estancia","nombre_cetram":null,"num_comercial":"2","sistema":"CBB","tipo":"Elevado","tipo_entidad":"estacion"}},{"type":"Feature","geometry":{"type":"Point","coordinates":[-99.19146,19.41304]},"properties":{"alcaldia_municipio":"Miguel Hidalgo","es_cetram":false,"jerarquia_transporte":"masivo_mediano","linea_id":2,"nombre":"Los Pinos Constituyentes","nombre_cetram":null,"num_comercial":"3","sistema":"CBB","tipo":"Elevado","tipo_entidad":"estacion"}},{"type":"Feature","geometry":{"type":"Point","coordinates":[-99.20097,19.4073]},"properties":{"alcaldia_municipio":"Miguel Hidalgo","es_cetram":false,"jerarquia_transporte":"masivo_mediano","linea_id":2,"nombre":"Panteón Dolores","nombre_cetram":null,"num_comercial":"3","sistema":"CBB","tipo":"Elevado","tipo_entidad":"estacion"}},{"type":"Feature","geometry":{"type":"Point","coordinates":[-99.22217,19.39678]},"properties":{"alcaldia_municipio":"Miguel Hidalgo","es_cetram":false,"jerarquia_transporte":"masivo_mediano","linea_id":2,"nombre":"PARCUR/Colegio de Arquitectos","nombre_cetram":null,"num_comercial":"3","sistema":"CBB","tipo":"Elevado","tipo_entidad":"estacion"}},{"type":"Feature","geometry":{"type":"Point","coordinates":[-99.04355,19.32806]},"properties":{"alcaldia_municipio":"Iztapalapa","es_cetram":false,"jerarquia_transporte":"masivo_mediano","linea_id":110,"nombre":"Quetzalcóatl","nombre_cetram":null,"num_comercial":"2","sistema":"CBB","tipo":"Elevado","tipo_entidad":"estacion"}},{"type":"Feature","geometry":{"type":"Point","coordinates":[-98.98944,19.34357]},"properties":{"alcaldia_municipio":"Iztapalapa","es_cetram":false,"jerarquia_transporte":"masivo_mediano","linea_id":110,"nombre":"San Miguel Teotongo","nombre_cetram":null,"num_comercial":"2","sistema":"CBB","tipo":"Elevado","tipo_entidad":"estacion"}},{"type":"Feature","geometry":{"type":"Point","coordinates":[-99.13368,19.51146]},"properties":{"alcaldia_municipio":"Gustavo A. Madero","es_cetram":false,"jerarquia_transporte":"masivo_mediano","linea_id":111,"nombre":"Santa María Ticomán","nombre_cetram":null,"num_comercial":"1","sistema":"CBB","tipo":"Elevado","tipo_entidad":"estacion"}},{"type":"Feature","geometry":{"type":"Point","coordinates":[-98.99399,19.35971]},"properties":{"alcaldia_municipio":"Iztapalapa","es_cetram":false,"jerarquia_transporte":"masivo_mediano","linea_id":110,"nombre":"Santa Marta","nombre_cetram":null,"num_comercial":"2","sistema":"CBB","tipo":"Elevado","tipo_entidad":"estacion"}},{"type":"Feature","geometry":{"type":"Point","coordinates":[-99.12619,19.54479]},"properties":{"alcaldia_municipio":"Gustavo A. Madero","es_cetram":false,"jerarquia_transporte":"masivo_mediano","linea_id":111,"nombre":"Tlalpexco","nombre_cetram":null,"num_comercial":"1","sistema":"CBB","tipo":"Elevado","tipo_entidad":"estacion"}},{"type":"Feature","geometry":{"type":"Point","coordinates":[-99.2318,19.38422]},"properties":{"alcaldia_municipio":"Álvaro Obregón","es_cetram":false,"jerarquia_transporte":"masivo_mediano","linea_id":2,"nombre":"Vasco de Quiroga","nombre_cetram":null,"num_comercial":"3","sistema":"CBB","tipo":"Elevado","tipo_entidad":"estacion"}},{"type":"Feature","geometry":{"type":"Point","coordinates":[-99.0192,19.33613]},"properties":{"alcaldia_municipio":"Iztapalapa","es_cetram":false,"jerarquia_transporte":"masivo_mediano","linea_id":110,"nombre":"Xalpa","nombre_cetram":null,"num_comercial":"2","sistema":"CBB","tipo":"Elevado","tipo_entidad":"estacion"}}]}