{"type":"FeatureCollection","features":[{"type":"Feature","geometry":{"type":"Point","coordinates":[-99.00567,19.36472]},"properties":{"alcaldia_municipio":"Iztapalapa","es_cetram":false,"jerarquia_transporte":"masivo_pesado","linea_id":85,"nombre":"Acatitla","nombre_cetram":null,"num_comercial":"A","sistema":"METRO","tipo":"Superficie","tipo_entidad":"estacion"}},{"type":"Feature","geometry":{"type":"Point","coordinates":[-99.1077,19.37321]},"properties":{"alcaldia_municipio":"Iztapalapa","es_cetram":false,"jerarquia_transporte":"masivo_pesado","linea_id":87,"nombre":"Aculco","nombre_cetram":null,"num_comercial":"8","sistema":"METRO","tipo":"Superficie","tipo_entidad":"estacion"}},{"type":"Feature","geometry":{"type":"Point","coordinates":[-99.06957,19.40462]},"properties":{"alcaldia_municipio":"Iztacalco","es_cetram":false,"jerarquia_transporte":"masivo_pesado","linea_id":85,"nombre":"Agrícola Oriental","nombre_cetram":null,"num_comercial":"A","sistema":"METRO","tipo":"Superficie","tipo_entidad":"estacion"}},{"type":"Feature","geometry":{"type":"Point","coordinates":[-99.13687,19.43556]},"properties":{"alcaldia_municipio":"Cuauhtémoc","es_cetram":false,"jerarquia_transporte":"masivo_pesado","linea_id":93,"nombre":"Allende","nombre_cetram":null,"num_comercial":"2","sistema":"METRO","tipo":"Subterráneo","tipo_entidad":"estacion"}},{"type":"Feature","geometry":{"type":"Point","coordinates":[-99.10949,19.3791]},"properties":{"alcaldia_municipio":"Iztapalapa","es_cetram":false,"jerarquia_transporte":"masivo_pesado","linea_id":87,"nombre":"Apatlaco","nombre_cetram":null,"num_comercial":"8","sistema":"METRO","tipo":"Superficie","tipo_entidad":"estacion"}},{"type":"Feature","geometry":{"type":"Point","coordinates":[-99.19535,19.49064]},"properties":{"alcaldia_municipio":"Azcapotzalco","es_cetram":false,"jerarquia_transporte":"masivo_pesado","linea_id":88,"nombre":"Aquiles Serdán","nombre_cetram":null,"num_comercial":"7","sistema":"METRO","tipo":"Superficie","tipo_entidad":"estacion"}},{"type":"Feature","geometry":{"type":"Point","coordinates":[-99.09621,19.45126]},"properties":{"alcaldia_municipio":"Gustavo A. Madero","es_cetram":false,"jerarquia_transporte":"masivo_pesado","linea_id":90,"nombre":"Aragón","nombre_cetram":null,"num_comercial":"5","sistema":"METRO","tipo":"Superficie","tipo_entidad":"estacion"}},{"type":"Feature","geometry":{"type":"Point","coordinates":[-99.10131,19.35608]},"properties":{"alcaldia_municipio":"Iztapalapa","es_cetram":false,"jerarquia_transporte":"masivo_pesado","linea_id":87,"nombre":"Atlalilco","nombre_cetram":null,"num_comercial":"8","sistema":"METRO","tipo":"Subterráneo","tipo_entidad":"estacion"}},{"type":"Feature","geometry":{"type":"Point","coordinates":[-99.10624,19.35275]},"properties":{"alcaldia_municipio":"Iztapalapa","es_cetram":false,"jerarquia_transporte":"masivo_pesado","linea_id":301,"nombre":"Atlalilco","nombre_cetram":null,"num_comercial":"L12","sistema":"METRO","tipo":"Subterráneo","tipo_entidad":"estacion"}},{"type":"Feature","geometry":{"type":"Point","coordinates":[-99.19203,19.42576]},"properties":{"alcaldia_municipio":"Miguel Hidalgo","es_cetram":false,"jerarquia_transporte":"masivo_pesado","linea_id":88,"nombre":"Auditorio","nombre_cetram":null,"num_comercial":"7","sistema":"METRO","tipo":"Superficie","tipo_entidad":"estacion"}},{"type":"Feature","geometry":{"type":"Point","coordinates":[-99.14065,19.47907]},"properties":{"alcaldia_municipio":"Gustavo A. Madero","es_cetram":false,"jerarquia_transporte":"masivo_pesado","linea_id":90,"nombre":"Autobuses del Norte","nombre_cetram":null,"num_comercial":"5","sistema":"METRO","tipo":"Superficie","tipo_entidad":"estacion"}},{"type":"Feature","geometry":{"type":"Point","coordinates":[-99.10277,19.42336]},"properties":{"alcaldia_municipio":"Venustiano Carranza","es_cetram":true,"jerarquia_transporte":"masivo_pesado","linea_id":191,"nombre":"Balbuena","nombre_cetram":"Balbuena","num_comercial":"1","sistema":"METRO","tipo":"Superficie","tipo_entidad":"estacion"}},{"type":"Feature","geometry":{"type":"Point","coordinates":[-99.14906,19.42648]},"properties":{"alcaldia_municipio":"Cuauhtémoc","es_cetram":false,"jerarquia_transporte":"masivo_pesado","linea_id":92,"nombre":"Balderas","nombre_cetram":null,"num_comercial":"3","sistema":"METRO","tipo":"Superficie","tipo_entidad":"estacion"}},{"type":"Feature","geometry":{"type":"Point","coordinates":[-99.14948,19.427]},"properties":{"alcaldia_municipio":"Cuauhtémoc","es_cetram":false,"jerarquia_transporte":"masivo_pesado","linea_id":191,"nombre":"Balderas","nombre_cetram":null,"num_comercial":"1","sistema":"METRO","tipo":"Superficie","tipo_entidad":"estacion"}},{"type":"Feature","geometry":{"type":"Point","coordinates":[-99.18926,19.3615]},"properties":{"alcaldia_municipio":"Álvaro Obregón","es_cetram":false,"jerarquia_transporte":"masivo_pesado","linea_id":88,"nombre":"Barranca del Muerto","nombre_cetram":null,"num_comercial":"7","sistema":"METRO","tipo":"Superficie","tipo_entidad":"estacion"}},{"type":"Feature","geometry":{"type":"Point","coordinates":[-99.14042,19.43701]},"properties":{"alcaldia_municipio":"Cuauhtémoc","es_cetram":false,"jerarquia_transporte":"masivo_pesado","linea_id":87,"nombre":"Bellas Artes","nombre_cetram":null,"num_comercial":"8","sistema":"METRO","tipo":"Superficie","tipo_entidad":"estacion"}},{"type":"Feature","geometry":{"type":"Point","coordinates":[-99.14161,19.43638]},"properties":{"alcaldia_municipio":"Cuauhtémoc","es_cetram":false,"jerarquia_transporte":"masivo_pesado","linea_id":93,"nombre":"Bellas Artes","nombre_cetram":null,"num_comercial":"2","sistema":"METRO","tipo":"Superficie","tipo_entidad":"estacion"}},{"type":"Feature","geometry":{"type":"Point","coordinates":[-99.11198,19.46463]},"properties":{"alcaldia_municipio":"Gustavo A. Madero","es_cetram":false,"jerarquia_transporte":"masivo_pesado","linea_id":91,"nombre":"Bondojito","nombre_cetram":null,"num_comercial":"4","sistema":"METRO","tipo":"Superficie","tipo_entidad":"estacion"}},{"type":"Feature","geometry":{"type":"Point","coordinates":[-99.06929,19.45809]},"properties":{"alcaldia_municipio":"Gustavo A. Madero","es_cetram":false,"jerarquia_transporte":"masivo_pesado","linea_id":84,"nombre":"Bosque de Aragón","nombre_cetram":null,"num_comercial":"B","sistema":"METRO","tipo":"Superficie","tipo_entidad":"estacion"}},{"type":"Feature","geometry":{"type":"Point","coordinates":[-99.09626,19.41994]},"properties":{"alcaldia_municipio":"Venustiano Carranza","es_cetram":true,"jerarquia_transporte":"masivo_pesado","linea_id":191,"nombre":"Boulevard Puerto Aéreo","nombre_cetram":"Puerto Aéreo","num_comercial":"1","sistema":"METRO","tipo":"Superficie","tipo_entidad":"estacion"}},{"type":"Feature","geometry":{"type":"Point","coordinates":[-99.15235,19.44619]},"properties":{"alcaldia_municipio":"Cuauhtémoc","es_cetram":false,"jerarquia_transporte":"masivo_pesado","linea_id":84,"nombre":"Buenavista","nombre_cetram":null,"num_comercial":"B","sistema":"METRO","tipo":"Superficie","tipo_entidad":"estacion"}},{"type":"Feature","geometry":{"type":"Point","coordinates":[-99.08587,19.32047]},"properties":{"alcaldia_municipio":"Iztapalapa","es_cetram":false,"jerarquia_transporte":"masivo_pesado","linea_id":301,"nombre":"Calle 11","nombre_cetram":null,"num_comercial":"L12","sistema":"METRO","tipo":"Superficie","tipo_entidad":"estacion"}},{"type":"Feature","geometry":{"type":"Point","coordinates":[-99.19004,19.47911]},"properties":{"alcaldia_municipio":"Azcapotzalco","es_cetram":false,"jerarquia_transporte":"masivo_pesado","linea_id":88,"nombre":"Camarones","nombre_cetram":null,"num_comercial":"7","sistema":"METRO","tipo":"Superficie","tipo_entidad":"estacion"}},{"type":"Feature","geometry":{"type":"Point","coordinates":[-99.11613,19.44895]},"properties":{"alcaldia_municipio":"Venustiano Carranza","es_cetram":false,"jerarquia_transporte":"masivo_pesado","linea_id":91,"nombre":"Canal del Norte","nombre_cetram":null,"num_comercial":"4","sistema":"METRO","tipo":"Superficie","tipo_entidad":"estacion"}},{"type":"Feature","geometry":{"type":"Point","coordinates":[-99.05942,19.39876]},"properties":{"alcaldia_municipio":"Iztacalco","es_cetram":false,"jerarquia_transporte":"masivo_pesado","linea_id":85,"nombre":"Canal de San Juan","nombre_cetram":null,"num_comercial":"A","sistema":"METRO","tipo":"Superficie","tipo_entidad":"estacion"}},{"type":"Feature","geometry":{"type":"Point","coordinates":[-99.11943,19.42876]},"properties":{"alcaldia_municipio":"Venustiano Carranza","es_cetram":false,"jerarquia_transporte":"masivo_pesado","linea_id":91,"nombre":"Candelaria","nombre_cetram":null,"num_comercial":"4","sistema":"METRO","tipo":"Superficie","tipo_entidad":"estacion"}},{"type":"Feature","geometry":{"type":"Point","coordinates":[-99.12091,19.42954]},"properties":{"alcaldia_municipio":"Venustiano Carranza","es_cetram":false,"jerarquia_transporte":"masivo_pesado","linea_id":191,"nombre":"Candelaria","nombre_cetram":null,"num_comercial":"1","sistema":"METRO","tipo":"Superficie","tipo_entidad":"estacion"}},{"type":"Feature","geometry":{"type":"Point","coordinates":[-99.15603,19.40656]},"properties":{"alcaldia_municipio":"Cuauhtémoc","es_cetram":false,"jerarquia_transporte":"masivo_pesado","linea_id":86,"nombre":"Centro Médico","nombre_cetram":null,"num_comercial":"9","sistema":"METRO","tipo":"Superficie","tipo_entidad":"estacion"}},{"type":"Feature","geometry":{"type":"Point","coordinates":[-99.15515,19.40773]},"properties":{"alcaldia_municipio":"Cuauhtémoc","es_cetram":false,"jerarquia_transporte":"masivo_pesado","linea_id":92,"nombre":"Centro Médico","nombre_cetram":null,"num_comercial":"3","sistema":"METRO","tipo":"Superficie","tipo_entidad":"estacion"}},{"type":"Feature","geometry":{"type":"Point","coordinates":[-99.08562,19.35605]},"properties":{"alcaldia_municipio":"Iztapalapa","es_cetram":false,"jerarquia_transporte":"masivo_pesado","linea_id":87,"nombre":"Cerro de la Estrella","nombre_cetram":null,"num_comercial":"8","sistema":"METRO","tipo":"Superficie","tipo_entidad":"estacion"}},{"type":"Feature","geometry":{"type":"Point","coordinates":[-99.13397,19.40851]},"properties":{"alcaldia_municipio":"Cuauhtémoc","es_cetram":false,"jerarquia_transporte":"masivo_pesado","linea_id":86,"nombre":"Chabacano","nombre_cetram":null,"num_comercial":"9","sistema":"METRO","tipo":"Superficie","tipo_entidad":"estacion"}},{"type":"Feature","geometry":{"type":"Point","coordinates":[-99.13375,19.41021]},"properties":{"alcaldia_municipio":"Cuauhtémoc","es_cetram":false,"jerarquia_transporte":"masivo_pesado","linea_id":87,"nombre":"Chabacano","nombre_cetram":null,"num_comercial":"8","sistema":"METRO","tipo":"Superficie","tipo_entidad":"estacion"}},{"type":"Feature","geometry":{"type":"Point","coordinates":[-99.13562,19.40918]},"properties":{"alcaldia_municipio":"Cuauhtémoc","es_cetram":false,"jerarquia_transporte":"masivo_pesado","linea_id":93,"nombre":"Chabacano","nombre_cetram":null,"num_comercial":"2","sistema":"METRO","tipo":"Superficie","tipo_entidad":"estacion"}},{"type":"Feature","geometry":{"type":"Point","coordinates":[-99.17642,19.42075]},"properties":{"alcaldia_municipio":"Cuauhtémoc","es_cetram":true,"jerarquia_transporte":"masivo_pesado","linea_id":191,"nombre":"Chapultepec","nombre_cetram":"Chapultepec","num_comercial":"1","sistema":"METRO","tipo":"Superficie","tipo_entidad":"estacion"}},{"type":"Feature","geometry":{"type":"Point","coordinates":[-99.16852,19.40593]},"properties":{"alcaldia_municipio":"Cuauhtémoc","es_cetram":false,"jerarquia_transporte":"masivo_pesado","linea_id":86,"nombre":"Chilpancingo","nombre_cetram":null,"num_comercial":"9","sistema":"METRO","tipo":"Superficie","tipo_entidad":"estacion"}},{"type":"Feature","geometry":{"type":"Point","coordinates":[-99.02751,19.53451]},"properties":{"alcaldia_municipio":"Ecatepec de Morelos","es_cetram":false,"jerarquia_transporte":"masivo_pesado","linea_id":84,"nombre":"Ciudad Azteca","nombre_cetram":null,"num_comercial":"B","sistema":"METRO","tipo":"Superficie","tipo_entidad":"estacion"}},{"type":"Feature","geometry":{"type":"Point","coordinates":[-99.09125,19.40843]},"properties":{"alcaldia_municipio":"Iztacalco","es_cetram":false,"jerarquia_transporte":"masivo_pesado","linea_id":86,"nombre":"Ciudad Deportiva","nombre_cetram":null,"num_comercial":"9","sistema":"METRO","tipo":"Superficie","tipo_entidad":"estacion"}},{"type":"Feature","geometry":{"type":"Point","coordinates":[-99.17178,19.44927]},"properties":{"alcaldia_municipio":"Miguel Hidalgo","es_cetram":false,"jerarquia_transporte":"masivo_pesado","linea_id":93,"nombre":"Colegio Militar","nombre_cetram":null,"num_comercial":"2","sistema":"METRO","tipo":"Superficie","tipo_entidad":"estacion"}},{"type":"Feature","geometry":{"type":"Point","coordinates":[-99.0638,19.34597]},"properties":{"alcaldia_municipio":"Iztapalapa","es_cetram":false,"jerarquia_transporte":"masivo_pesado","linea_id":87,"nombre":"Constitución de 1917","nombre_cetram":null,"num_comercial":"8","sistema":"METRO","tipo":"Superficie","tipo_entidad":"estacion"}},{"type":"Feature","geometry":{"type":"Point","coordinates":[-99.19135,19.41177]},"properties":{"alcaldia_municipio":"Miguel Hidalgo","es_cetram":false,"jerarquia_transporte":"masivo_pesado","linea_id":88,"nombre":"Constituyentes","nombre_cetram":null,"num_comercial":"7","sistema":"METRO","tipo":"Superficie","tipo_entidad":"estacion"}},{"type":"Feature","geometry":{"type":"Point","coordinates":[-99.11354,19.45514]},"properties":{"alcaldia_municipio":"Gustavo A. Madero","es_cetram":false,"jerarquia_transporte":"masivo_pesado","linea_id":90,"nombre":"Consulado","nombre_cetram":null,"num_comercial":"5","sistema":"METRO","tipo":"Superficie","tipo_entidad":"estacion"}},{"type":"Feature","geometry":{"type":"Point","coordinates":[-99.1139,19.45802]},"properties":{"alcaldia_municipio":"Gustavo A. Madero","es_cetram":false,"jerarquia_transporte":"masivo_pesado","linea_id":91,"nombre":"Consulado","nombre_cetram":null,"num_comercial":"4","sistema":"METRO","tipo":"Superficie","tipo_entidad":"estacion"}},{"type":"Feature","geometry":{"type":"Point","coordinates":[-99.17697,19.3361]},"properties":{"alcaldia_municipio":"Coyoacán","es_cetram":false,"jerarquia_transporte":"masivo_pesado","linea_id":92,"nombre":"Copilco","nombre_cetram":null,"num_comercial":"3","sistema":"METRO","tipo":"Superficie","tipo_entidad":"estacion"}},{"type":"Feature","geometry":{"type":"Point","coordinates":[-99.17086,19.36136]},"properties":{"alcaldia_municipio":"Benito Juárez","es_cetram":false,"jerarquia_transporte":"masivo_pesado","linea_id":92,"nombre":"Coyoacán","nombre_cetram":null,"num_comercial":"3","sistema":"METRO","tipo":"Superficie","tipo_entidad":"estacion"}},{"type":"Feature","geometry":{"type":"Point","coordinates":[-99.11348,19.3983]},"properties":{"alcaldia_municipio":"Iztacalco","es_cetram":true,"jerarquia_transporte":"masivo_pesado","linea_id":87,"nombre":"Coyuya","nombre_cetram":"Coyuya","num_comercial":"8","sistema":"METRO","tipo":"Superficie","tipo_entidad":"estacion"}},{"type":"Feature","geometry":{"type":"Point","coordinates":[-99.21584,19.45959]},"properties":{"alcaldia_municipio":"Naucalpan de Juárez","es_cetram":false,"jerarquia_transporte":"masivo_pesado","linea_id":93,"nombre":"Cuatro Caminos","nombre_cetram":null,"num_comercial":"2","sistema":"METRO","tipo":"Subterráneo","tipo_entidad":"estacion"}},{"type":"Feature","geometry":{"type":"Point","coordinates":[-99.1546,19.42566]},"properties":{"alcaldia_municipio":"Cuauhtémoc","es_cetram":false,"jerarquia_transporte":"masivo_pesado","linea_id":191,"nombre":"Cuauhtémoc","nombre_cetram":null,"num_comercial":"1","sistema":"METRO","tipo":"Superficie","tipo_entidad":"estacion"}},{"type":"Feature","geometry":{"type":"Point","coordinates":[-99.1815,19.45725]},"properties":{"alcaldia_municipio":"Miguel Hidalgo","es_cetram":false,"jerarquia_transporte":"masivo_pesado","linea_id":93,"nombre":"Cuitláhuac","nombre_cetram":null,"num_comercial":"2","sistema":"METRO","tipo":"Superficie","tipo_entidad":"estacion"}},{"type":"Feature","geometry":{"type":"Point","coordinates":[-99.10896,19.33685]},"properties":{"alcaldia_municipio":"Iztapalapa","es_cetram":false,"jerarquia_transporte":"masivo_pesado","linea_id":301,"nombre":"Culhuacán","nombre_cetram":null,"num_comercial":"L12","sistema":"METRO","tipo":"Superficie","tipo_entidad":"estacion"}},{"type":"Feature","geometry":{"type":"Point","coordinates":[-99.1253,19.48348]},"properties":{"alcaldia_municipio":"Gustavo A. Madero","es_cetram":false,"jerarquia_transporte":"masivo_pesado","linea_id":89,"nombre":"Deportivo 18 de Marzo","nombre_cetram":null,"num_comercial":"6","sistema":"METRO","tipo":"Superficie","tipo_entidad":"estacion"}},{"type":"Feature","geometry":{"type":"Point","coordinates":[-99.1255,19.48511]},"properties":{"alcaldia_municipio":"Gustavo A. Madero","es_cetram":false,"jerarquia_transporte":"masivo_pesado","linea_id":92,"nombre":"Deportivo 18 de Marzo","nombre_cetram":null,"num_comercial":"3","sistema":"METRO","tipo":"Superficie","tipo_entidad":"estacion"}},{"type":"Feature","geometry":{"type":"Point","coordinates":[-99.07933,19.45101]},"properties":{"alcaldia_municipio":"Gustavo A. Madero","es_cetram":false,"jerarquia_transporte":"masivo_pesado","linea_id":84,"nombre":"Deportivo Oceanía","nombre_cetram":null,"num_comercial":"B","sistema":"METRO","tipo":"Superficie","tipo_entidad":"estacion"}},{"type":"Feature","geometry":{"type":"Point","coordinates":[-99.15948,19.37918]},"properties":{"alcaldia_municipio":"Benito Juárez","es_cetram":false,"jerarquia_transporte":"masivo_pesado","linea_id":92,"nombre":"División del Norte","nombre_cetram":null,"num_comercial":"3","sistema":"METRO","tipo":"Superficie","tipo_entidad":"estacion"}},{"type":"Feature","geometry":{"type":"Point","coordinates":[-99.14319,19.42155]},"properties":{"alcaldia_municipio":"Cuauhtémoc","es_cetram":false,"jerarquia_transporte":"masivo_pesado","linea_id":87,"nombre":"Doctores","nombre_cetram":null,"num_comercial":"8","sistema":"METRO","tipo":"Superficie","tipo_entidad":"estacion"}},{"type":"Feature","geometry":{"type":"Point","coordinates":[-99.03607,19.51513]},"properties":{"alcaldia_municipio":"Ecatepec de Morelos","es_cetram":false,"jerarquia_transporte":"masivo_pesado","linea_id":84,"nombre":"Ecatepec","nombre_cetram":null,"num_comercial":"B","sistema":"METRO","tipo":"Superficie","tipo_entidad":"estacion"}},{"type":"Feature","geometry":{"type":"Point","coordinates":[-99.1053,19.4514]},"properties":{"alcaldia_municipio":"Gustavo A. Madero","es_cetram":false,"jerarquia_transporte":"masivo_pesado","linea_id":90,"nombre":"Eduardo Molina","nombre_cetram":null,"num_comercial":"5","sistema":"METRO","tipo":"Superficie","tipo_entidad":"estacion"}},{"type":"Feature","geometry":{"type":"Point","coordinates":[-99.15142,19.36134]},"properties":{"alcaldia_municipio":"Benito Juárez","es_cetram":false,"jerarquia_transporte":"masivo_pesado","linea_id":301,"nombre":"Eje Central","nombre_cetram":null,"num_comercial":"L12","sistema":"METRO","tipo":"Superficie","tipo_entidad":"estacion"}},{"type":"Feature","geometry":{"type":"Point","coordinates":[-99.20012,19.50474]},"properties":{"alcaldia_municipio":"Azcapotzalco","es_cetram":false,"jerarquia_transporte":"masivo_pesado","linea_id":88,"nombre":"El Rosario","nombre_cetram":null,"num_comercial":"7","sistema":"METRO","tipo":"Superficie","tipo_entidad":"estacion"}},{"type":"Feature","geometry":{"type":"Point","coordinates":[-99.19977,19.50463]},"properties":{"alcaldia_municipio":"Azcapotzalco","es_cetram":false,"jerarquia_transporte":"masivo_pesado","linea_id":89,"nombre":"El Rosario","nombre_cetram":null,"num_comercial":"6","sistema":"METRO","tipo":"Superficie","tipo_entidad":"estacion"}},{"type":"Feature","geometry":{"type":"Point","coordinates":[-99.1429,19.36198]},"properties":{"alcaldia_municipio":"Benito Juárez","es_cetram":false,"jerarquia_transporte":"masivo_pesado","linea_id":93,"nombre":"Ermita","nombre_cetram":null,"num_comercial":"2","sistema":"METRO","tipo":"Superficie","tipo_entidad":"estacion"}},{"type":"Feature","geometry":{"type":"Point","coordinates":[-99.14163,19.35982]},"properties":{"alcaldia_municipio":"Benito Juárez","es_cetram":false,"jerarquia_transporte":"masivo_pesado","linea_id":301,"nombre":"Ermita","nombre_cetram":null,"num_comercial":"L12","sistema":"METRO","tipo":"Superficie","tipo_entidad":"estacion"}},{"type":"Feature","geometry":{"type":"Point","coordinates":[-99.10948,19.36484]},"properties":{"alcaldia_municipio":"Iztapalapa","es_cetram":false,"jerarquia_transporte":"masivo_pesado","linea_id":87,"nombre":"Escuadrón 201","nombre_cetram":null,"num_comercial":"8","sistema":"METRO","tipo":"Superficie","tipo_entidad":"estacion"}},{"type":"Feature","geometry":{"type":"Point","coordinates":[-99.15603,19.39592]},"properties":{"alcaldia_municipio":"Benito Juárez","es_cetram":false,"jerarquia_transporte":"masivo_pesado","linea_id":92,"nombre":"Etiopía y Plaza de la Transparencia","nombre_cetram":null,"num_comercial":"3","sistema":"METRO","tipo":"Subterráneo","tipo_entidad":"estacion"}},{"type":"Feature","geometry":{"type":"Point","coordinates":[-99.1572,19.38617]},"properties":{"alcaldia_municipio":"Benito Juárez","es_cetram":false,"jerarquia_transporte":"masivo_pesado","linea_id":92,"nombre":"Eugenia","nombre_cetram":null,"num_comercial":"3","sistema":"METRO","tipo":"Superficie","tipo_entidad":"estacion"}},{"type":"Feature","geometry":{"type":"Point","coordinates":[-99.17415,19.49067]},"properties":{"alcaldia_municipio":"Azcapotzalco","es_cetram":false,"jerarquia_transporte":"masivo_pesado","linea_id":89,"nombre":"Ferrería y Arena Ciudad de México","nombre_cetram":null,"num_comercial":"6","sistema":"METRO","tipo":"Superficie","tipo_entidad":"estacion"}},{"type":"Feature","geometry":{"type":"Point","coordinates":[-99.12053,19.42159]},"properties":{"alcaldia_municipio":"Venustiano Carranza","es_cetram":false,"jerarquia_transporte":"masivo_pesado","linea_id":91,"nombre":"Fray Servando","nombre_cetram":null,"num_comercial":"4","sistema":"METRO","tipo":"Superficie","tipo_entidad":"estacion"}},{"type":"Feature","geometry":{"type":"Point","coordinates":[-99.13787,19.44389]},"properties":{"alcaldia_municipio":"Cuauhtémoc","es_cetram":false,"jerarquia_transporte":"masivo_pesado","linea_id":84,"nombre":"Garibaldi y Lagunilla","nombre_cetram":null,"num_comercial":"B","sistema":"METRO","tipo":"Subterráneo","tipo_entidad":"estacion"}},{"type":"Feature","geometry":{"type":"Point","coordinates":[-99.139,19.444]},"properties":{"alcaldia_municipio":"Cuauhtémoc","es_cetram":false,"jerarquia_transporte":"masivo_pesado","linea_id":87,"nombre":"Garibaldi y Lagunilla","nombre_cetram":null,"num_comercial":"8","sistema":"METRO","tipo":"Subterráneo","tipo_entidad":"estacion"}},{"type":"Feature","geometry":{"type":"Point","coordinates":[-99.14501,19.35324]},"properties":{"alcaldia_municipio":"Coyoacán","es_cetram":false,"jerarquia_transporte":"masivo_pesado","linea_id":93,"nombre":"General Anaya","nombre_cetram":null,"num_comercial":"2","sistema":"METRO","tipo":"Superficie","tipo_entidad":"estacion"}},{"type":"Feature","geometry":{"type":"Point","coordinates":[-99.09021,19.41648]},"properties":{"alcaldia_municipio":"Venustiano Carranza","es_cetram":false,"jerarquia_transporte":"masivo_pesado","linea_id":191,"nombre":"Gómez Farías","nombre_cetram":null,"num_comercial":"1","sistema":"METRO","tipo":"Superficie","tipo_entidad":"estacion"}},{"type":"Feature","geometry":{"type":"Point","coordinates":[-99.03566,19.38515]},"properties":{"alcaldia_municipio":"Iztapalapa","es_cetram":false,"jerarquia_transporte":"masivo_pesado","linea_id":85,"nombre":"Guelatao","nombre_cetram":null,"num_comercial":"A","sistema":"METRO","tipo":"Superficie","tipo_entidad":"estacion"}},{"type":"Feature","geometry":{"type":"Point","coordinates":[-99.14614,19.44514]},"properties":{"alcaldia_municipio":"Cuauhtémoc","es_cetram":false,"jerarquia_transporte":"masivo_pesado","linea_id":84,"nombre":"Guerrero","nombre_cetram":null,"num_comercial":"B","sistema":"METRO","tipo":"Superficie","tipo_entidad":"estacion"}},{"type":"Feature","geometry":{"type":"Point","coordinates":[-99.14519,19.44473]},"properties":{"alcaldia_municipio":"Cuauhtémoc","es_cetram":false,"jerarquia_transporte":"masivo_pesado","linea_id":92,"nombre":"Guerrero","nombre_cetram":null,"num_comercial":"3","sistema":"METRO","tipo":"Superficie","tipo_entidad":"estacion"}},{"type":"Feature","geometry":{"type":"Point","coordinates":[-99.08813,19.42435]},"properties":{"alcaldia_municipio":"Venustiano Carranza","es_cetram":false,"jerarquia_transporte":"masivo_pesado","linea_id":90,"nombre":"Hangares","nombre_cetram":null,"num_comercial":"5","sistema":"METRO","tipo":"Superficie","tipo_entidad":"estacion"}},{"type":"Feature","geometry":{"type":"Point","coordinates":[-99.14678,19.43738]},"properties":{"alcaldia_municipio":"Cuauhtémoc","es_cetram":false,"jerarquia_transporte":"masivo_pesado","linea_id":92,"nombre":"Hidalgo","nombre_cetram":null,"num_comercial":"3","sistema":"METRO","tipo":"Superficie","tipo_entidad":"estacion"}},{"type":"Feature","geometry":{"type":"Point","coordinates":[-99.14722,19.43755]},"properties":{"alcaldia_municipio":"Cuauhtémoc","es_cetram":false,"jerarquia_transporte":"masivo_pesado","linea_id":93,"nombre":"Hidalgo","nombre_cetram":null,"num_comercial":"2","sistema":"METRO","tipo":"Superficie","tipo_entidad":"estacion"}},{"type":"Feature","geometry":{"type":"Point","coordinates":[-99.17088,19.37201]},"properties":{"alcaldia_municipio":"Benito Juárez","es_cetram":false,"jerarquia_transporte":"masivo_pesado","linea_id":301,"nombre":"Hospital 20 de Noviembre","nombre_cetram":null,"num_comercial":"L12","sistema":"METRO","tipo":"Superficie","tipo_entidad":"estacion"}},{"type":"Feature","geometry":{"type":"Point","coordinates":[-99.15325,19.41376]},"properties":{"alcaldia_municipio":"Cuauhtémoc","es_cetram":false,"jerarquia_transporte":"masivo_pesado","linea_id":92,"nombre":"Hospital General","nombre_cetram":null,"num_comercial":"3","sistema":"METRO","tipo":"Superficie","tipo_entidad":"estacion"}},{"type":"Feature","geometry":{"type":"Point","coordinates":[-99.04896,19.48575]},"properties":{"alcaldia_municipio":"Nezahualcóyotl","es_cetram":false,"jerarquia_transporte":"masivo_pesado","linea_id":84,"nombre":"Impulsora","nombre_cetram":null,"num_comercial":"B","sistema":"METRO","tipo":"Superficie","tipo_entidad":"estacion"}},{"type":"Feature","geometry":{"type":"Point","coordinates":[-99.11951,19.49534]},"properties":{"alcaldia_municipio":"Gustavo A. Madero","es_cetram":false,"jerarquia_transporte":"masivo_pesado","linea_id":92,"nombre":"Indios Verdes","nombre_cetram":null,"num_comercial":"3","sistema":"METRO","tipo":"Elevado","tipo_entidad":"estacion"}},{"type":"Feature","geometry":{"type":"Point","coordinates":[-99.14813,19.49104]},"properties":{"alcaldia_municipio":"Gustavo A. Madero","es_cetram":false,"jerarquia_transporte":"masivo_pesado","linea_id":89,"nombre":"Instituto del Petróleo","nombre_cetram":null,"num_comercial":"6","sistema":"METRO","tipo":"Superficie","tipo_entidad":"estacion"}},{"type":"Feature","geometry":{"type":"Point","coordinates":[-99.14471,19.48934]},"properties":{"alcaldia_municipio":"Gustavo A. Madero","es_cetram":false,"jerarquia_transporte":"masivo_pesado","linea_id":90,"nombre":"Instituto del Petróleo","nombre_cetram":null,"num_comercial":"5","sistema":"METRO","tipo":"Superficie","tipo_entidad":"estacion"}},{"type":"Feature","geometry":{"type":"Point","coordinates":[-99.16329,19.42365]},"properties":{"alcaldia_municipio":"Cuauhtémoc","es_cetram":false,"jerarquia_transporte":"masivo_pesado","linea_id":191,"nombre":"Insurgentes","nombre_cetram":null,"num_comercial":"1","sistema":"METRO","tipo":"Superficie","tipo_entidad":"estacion"}},{"type":"Feature","geometry":{"type":"Point","coordinates":[-99.17825,19.37355]},"properties":{"alcaldia_municipio":"Benito Juárez","es_cetram":false,"jerarquia_transporte":"masivo_pesado","linea_id":301,"nombre":"Insurgentes Sur","nombre_cetram":null,"num_comercial":"L12","sistema":"METRO","tipo":"Subterráneo","tipo_entidad":"estacion"}},{"type":"Feature","geometry":{"type":"Point","coordinates":[-99.13783,19.42639]},"properties":{"alcaldia_municipio":"Cuauhtémoc","es_cetram":false,"jerarquia_transporte":"masivo_pesado","linea_id":191,"nombre":"Isabel la Católica","nombre_cetram":null,"num_comercial":"1","sistema":"METRO","tipo":"Superficie","tipo_entidad":"estacion"}},{"type":"Feature","geometry":{"type":"Point","coordinates":[-99.11211,19.38829]},"properties":{"alcaldia_municipio":"Iztacalco","es_cetram":false,"jerarquia_transporte":"masivo_pesado","linea_id":87,"nombre":"Iztacalco","nombre_cetram":null,"num_comercial":"8","sistema":"METRO","tipo":"Superficie","tipo_entidad":"estacion"}},{"type":"Feature","geometry":{"type":"Point","coordinates":[-99.09345,19.35783]},"properties":{"alcaldia_municipio":"Iztapalapa","es_cetram":true,"jerarquia_transporte":"masivo_pesado","linea_id":87,"nombre":"Iztapalapa","nombre_cetram":"Iztapalapa","num_comercial":"8","sistema":"METRO","tipo":"Superficie","tipo_entidad":"estacion"}},{"type":"Feature","geometry":{"type":"Point","coordinates":[-99.12235,19.4091]},"properties":{"alcaldia_municipio":"Venustiano Carranza","es_cetram":false,"jerarquia_transporte":"masivo_pesado","linea_id":86,"nombre":"Jamaica","nombre_cetram":null,"num_comercial":"9","sistema":"METRO","tipo":"Superficie","tipo_entidad":"estacion"}},{"type":"Feature","geometry":{"type":"Point","coordinates":[-99.12174,19.41092]},"properties":{"alcaldia_municipio":"Venustiano Carranza","es_cetram":false,"jerarquia_transporte":"masivo_pesado","linea_id":91,"nombre":"Jamaica","nombre_cetram":null,"num_comercial":"4","sistema":"METRO","tipo":"Superficie","tipo_entidad":"estacion"}},{"type":"Feature","geometry":{"type":"Point","coordinates":[-99.18198,19.41295]},"properties":{"alcaldia_municipio":"Miguel Hidalgo","es_cetram":false,"jerarquia_transporte":"masivo_pesado","linea_id":191,"nombre":"Juanacatlán","nombre_cetram":null,"num_comercial":"1","sistema":"METRO","tipo":"Superficie","tipo_entidad":"estacion"}},{"type":"Feature","geometry":{"type":"Point","coordinates":[-99.14768,19.43325]},"properties":{"alcaldia_municipio":"Cuauhtémoc","es_cetram":false,"jerarquia_transporte":"masivo_pesado","linea_id":92,"nombre":"Juárez","nombre_cetram":null,"num_comercial":"3","sistema":"METRO","tipo":"Superficie","tipo_entidad":"estacion"}},{"type":"Feature","geometry":{"type":"Point","coordinates":[-99.13023,19.44322]},"properties":{"alcaldia_municipio":"Cuauhtémoc","es_cetram":false,"jerarquia_transporte":"masivo_pesado","linea_id":84,"nombre":"Lagunilla","nombre_cetram":null,"num_comercial":"B","sistema":"METRO","tipo":"Superficie","tipo_entidad":"estacion"}},{"type":"Feature","geometry":{"type":"Point","coordinates":[-98.96094,19.35056]},"properties":{"alcaldia_municipio":"La Paz","es_cetram":false,"jerarquia_transporte":"masivo_pesado","linea_id":85,"nombre":"La Paz","nombre_cetram":null,"num_comercial":"A","sistema":"METRO","tipo":"Superficie","tipo_entidad":"estacion"}},{"type":"Feature","geometry":{"type":"Point","coordinates":[-99.13652,19.46967]},"properties":{"alcaldia_municipio":"Gustavo A. Madero","es_cetram":false,"jerarquia_transporte":"masivo_pesado","linea_id":90,"nombre":"La Raza","nombre_cetram":null,"num_comercial":"5","sistema":"METRO","tipo":"Superficie","tipo_entidad":"estacion"}},{"type":"Feature","geometry":{"type":"Point","coordinates":[-99.13951,19.46888]},"properties":{"alcaldia_municipio":"Gustavo A. Madero","es_cetram":false,"jerarquia_transporte":"masivo_pesado","linea_id":92,"nombre":"La Raza","nombre_cetram":null,"num_comercial":"3","sistema":"METRO","tipo":"Superficie","tipo_entidad":"estacion"}},{"type":"Feature","geometry":{"type":"Point","coordinates":[-99.12627,19.40671]},"properties":{"alcaldia_municipio":"Cuauhtémoc","es_cetram":false,"jerarquia_transporte":"masivo_pesado","linea_id":87,"nombre":"La Viga","nombre_cetram":null,"num_comercial":"8","sistema":"METRO","tipo":"Superficie","tipo_entidad":"estacion"}},{"type":"Feature","geometry":{"type":"Point","coordinates":[-99.11837,19.48174]},"properties":{"alcaldia_municipio":"Gustavo A. Madero","es_cetram":false,"jerarquia_transporte":"masivo_pesado","linea_id":89,"nombre":"La Villa y Basílica","nombre_cetram":null,"num_comercial":"6","sistema":"METRO","tipo":"Subterráneo","tipo_entidad":"estacion"}},{"type":"Feature","geometry":{"type":"Point","coordinates":[-99.14463,19.40722]},"properties":{"alcaldia_municipio":"Cuauhtémoc","es_cetram":false,"jerarquia_transporte":"masivo_pesado","linea_id":86,"nombre":"Lázaro Cárdenas","nombre_cetram":null,"num_comercial":"9","sistema":"METRO","tipo":"Superficie","tipo_entidad":"estacion"}},{"type":"Feature","geometry":{"type":"Point","coordinates":[-99.13507,19.48811]},"properties":{"alcaldia_municipio":"Gustavo A. Madero","es_cetram":false,"jerarquia_transporte":"masivo_pesado","linea_id":89,"nombre":"Lindavista","nombre_cetram":null,"num_comercial":"6","sistema":"METRO","tipo":"Superficie","tipo_entidad":"estacion"}},{"type":"Feature","geometry":{"type":"Point","coordinates":[-99.09575,19.32215]},"properties":{"alcaldia_municipio":"Iztapalapa","es_cetram":false,"jerarquia_transporte":"masivo_pesado","linea_id":301,"nombre":"Lomas Estrella","nombre_cetram":null,"num_comercial":"L12","sistema":"METRO","tipo":"Superficie","tipo_entidad":"estacion"}},{"type":"Feature","geometry":{"type":"Point","coordinates":[-98.97687,19.35904]},"properties":{"alcaldia_municipio":"La Paz","es_cetram":false,"jerarquia_transporte":"masivo_pesado","linea_id":85,"nombre":"Los Reyes","nombre_cetram":null,"num_comercial":"A","sistema":"METRO","tipo":"Superficie","tipo_entidad":"estacion"}},{"type":"Feature","geometry":{"type":"Point","coordinates":[-99.10748,19.48294]},"properties":{"alcaldia_municipio":"Gustavo A. Madero","es_cetram":false,"jerarquia_transporte":"masivo_pesado","linea_id":89,"nombre":"Martín Carrera","nombre_cetram":null,"num_comercial":"6","sistema":"METRO","tipo":"Superficie","tipo_entidad":"estacion"}},{"type":"Feature","geometry":{"type":"Point","coordinates":[-99.10437,19.48504]},"properties":{"alcaldia_municipio":"Gustavo A. Madero","es_cetram":false,"jerarquia_transporte":"masivo_pesado","linea_id":91,"nombre":"Martín Carrera","nombre_cetram":null,"num_comercial":"4","sistema":"METRO","tipo":"Superficie","tipo_entidad":"estacion"}},{"type":"Feature","geometry":{"type":"Point","coordinates":[-99.12503,19.42549]},"properties":{"alcaldia_municipio":"Venustiano Carranza","es_cetram":false,"jerarquia_transporte":"masivo_pesado","linea_id":191,"nombre":"Merced","nombre_cetram":null,"num_comercial":"1","sistema":"METRO","tipo":"Superficie","tipo_entidad":"estacion"}},{"type":"Feature","geometry":{"type":"Point","coordinates":[-99.12314,19.35776]},"properties":{"alcaldia_municipio":"Coyoacán","es_cetram":false,"jerarquia_transporte":"masivo_pesado","linea_id":301,"nombre":"Mexicaltzingo","nombre_cetram":null,"num_comercial":"L12","sistema":"METRO","tipo":"Superficie","tipo_entidad":"estacion"}},{"type":"Feature","geometry":{"type":"Point","coordinates":[-99.18076,19.34625]},"properties":{"alcaldia_municipio":"Coyoacán","es_cetram":false,"jerarquia_transporte":"masivo_pesado","linea_id":92,"nombre":"Miguel Ángel de Quevedo","nombre_cetram":null,"num_comercial":"3","sistema":"METRO","tipo":"Superficie","tipo_entidad":"estacion"}},{"type":"Feature","geometry":{"type":"Point","coordinates":[-99.13024,19.46311]},"properties":{"alcaldia_municipio":"Gustavo A. Madero","es_cetram":false,"jerarquia_transporte":"masivo_pesado","linea_id":90,"nombre":"Misterios","nombre_cetram":null,"num_comercial":"5","sistema":"METRO","tipo":"Superficie","tipo_entidad":"estacion"}},{"type":"Feature","geometry":{"type":"Point","coordinates":[-99.18758,19.37626]},"properties":{"alcaldia_municipio":"Benito Juárez","es_cetram":false,"jerarquia_transporte":"masivo_pesado","linea_id":88,"nombre":"Mixcoac","nombre_cetram":null,"num_comercial":"7","sistema":"METRO","tipo":"Subterráneo","tipo_entidad":"estacion"}},{"type":"Feature","geometry":{"type":"Point","coordinates":[-99.18673,19.3757]},"properties":{"alcaldia_municipio":"Benito Juárez","es_cetram":false,"jerarquia_transporte":"masivo_pesado","linea_id":301,"nombre":"Mixcoac","nombre_cetram":null,"num_comercial":"L12","sistema":"METRO","tipo":"Subterráneo","tipo_entidad":"estacion"}},{"type":"Feature","geometry":{"type":"Point","coordinates":[-99.11297,19.40837]},"properties":{"alcaldia_municipio":"Venustiano Carranza","es_cetram":false,"jerarquia_transporte":"masivo_pesado","linea_id":86,"nombre":"Mixiuhca","nombre_cetram":null,"num_comercial":"9","sistema":"METRO","tipo":"Superficie","tipo_entidad":"estacion"}},{"type":"Feature","geometry":{"type":"Point","coordinates":[-99.1098,19.42685]},"properties":{"alcaldia_municipio":"Venustiano Carranza","es_cetram":true,"jerarquia_transporte":"masivo_pesado","linea_id":191,"nombre":"Moctezuma","nombre_cetram":"Moctezuma","num_comercial":"1","sistema":"METRO","tipo":"Superficie","tipo_entidad":"estacion"}},{"type":"Feature","geometry":{"type":"Point","coordinates":[-99.11957,19.43917]},"properties":{"alcaldia_municipio":"Venustiano Carranza","es_cetram":false,"jerarquia_transporte":"masivo_pesado","linea_id":84,"nombre":"Morelos","nombre_cetram":null,"num_comercial":"B","sistema":"METRO","tipo":"Superficie","tipo_entidad":"estacion"}},{"type":"Feature","geometry":{"type":"Point","coordinates":[-99.11815,19.43966]},"properties":{"alcaldia_municipio":"Venustiano Carranza","es_cetram":false,"jerarquia_transporte":"masivo_pesado","linea_id":91,"nombre":"Morelos","nombre_cetram":null,"num_comercial":"4","sistema":"METRO","tipo":"Superficie","tipo_entidad":"estacion"}},{"type":"Feature","geometry":{"type":"Point","coordinates":[-99.04207,19.50149]},"properties":{"alcaldia_municipio":"Ecatepec de Morelos","es_cetram":false,"jerarquia_transporte":"masivo_pesado","linea_id":84,"nombre":"Múzquiz","nombre_cetram":null,"num_comercial":"B","sistema":"METRO","tipo":"Superficie","tipo_entidad":"estacion"}},{"type":"Feature","geometry":{"type":"Point","coordinates":[-99.14002,19.38005]},"properties":{"alcaldia_municipio":"Benito Juárez","es_cetram":false,"jerarquia_transporte":"masivo_pesado","linea_id":93,"nombre":"Nativitas","nombre_cetram":null,"num_comercial":"2","sistema":"METRO","tipo":"Superficie","tipo_entidad":"estacion"}},{"type":"Feature","geometry":{"type":"Point","coordinates":[-99.05461,19.47289]},"properties":{"alcaldia_municipio":"Nezahualcóyotl","es_cetram":false,"jerarquia_transporte":"masivo_pesado","linea_id":84,"nombre":"Nezahualcóyotl","nombre_cetram":null,"num_comercial":"B","sistema":"METRO","tipo":"Superficie","tipo_entidad":"estacion"}},{"type":"Feature","geometry":{"type":"Point","coordinates":[-99.15036,19.41948]},"properties":{"alcaldia_municipio":"Cuauhtémoc","es_cetram":false,"jerarquia_transporte":"masivo_pesado","linea_id":92,"nombre":"Niños Héroes y  Poder Judicial CDMX","nombre_cetram":null,"num_comercial":"3","sistema":"METRO","tipo":"Subterráneo","tipo_entidad":"estacion"}},{"type":"Feature","geometry":{"type":"Point","coordinates":[-99.04599,19.29996]},"properties":{"alcaldia_municipio":"Tláhuac","es_cetram":false,"jerarquia_transporte":"masivo_pesado","linea_id":301,"nombre":"Nopalera","nombre_cetram":null,"num_comercial":"L12","sistema":"METRO","tipo":"Superficie","tipo_entidad":"estacion"}},{"type":"Feature","geometry":{"type":"Point","coordinates":[-99.16727,19.44456]},"properties":{"alcaldia_municipio":"Miguel Hidalgo","es_cetram":false,"jerarquia_transporte":"masivo_pesado","linea_id":93,"nombre":"Normal","nombre_cetram":null,"num_comercial":"2","sistema":"METRO","tipo":"Superficie","tipo_entidad":"estacion"}},{"type":"Feature","geometry":{"type":"Point","coordinates":[-99.16299,19.48867]},"properties":{"alcaldia_municipio":"Azcapotzalco","es_cetram":false,"jerarquia_transporte":"masivo_pesado","linea_id":89,"nombre":"Norte 45","nombre_cetram":null,"num_comercial":"6","sistema":"METRO","tipo":"Superficie","tipo_entidad":"estacion"}},{"type":"Feature","geometry":{"type":"Point","coordinates":[-99.14404,19.41324]},"properties":{"alcaldia_municipio":"Cuauhtémoc","es_cetram":false,"jerarquia_transporte":"masivo_pesado","linea_id":87,"nombre":"Obrera","nombre_cetram":null,"num_comercial":"8","sistema":"METRO","tipo":"Superficie","tipo_entidad":"estacion"}},{"type":"Feature","geometry":{"type":"Point","coordinates":[-99.2004,19.39828]},"properties":{"alcaldia_municipio":"Álvaro Obregón","es_cetram":false,"jerarquia_transporte":"masivo_pesado","linea_id":191,"nombre":"Observatorio","nombre_cetram":null,"num_comercial":"1","sistema":"METRO","tipo":"Superficie","tipo_entidad":"estacion"}},{"type":"Feature","geometry":{"type":"Point","coordinates":[-99.08722,19.44569]},"properties":{"alcaldia_municipio":"Venustiano Carranza","es_cetram":false,"jerarquia_transporte":"masivo_pesado","linea_id":84,"nombre":"Oceanía","nombre_cetram":null,"num_comercial":"B","sistema":"METRO","tipo":"Superficie","tipo_entidad":"estacion"}},{"type":"Feature","geometry":{"type":"Point","coordinates":[-99.08687,19.44502]},"properties":{"alcaldia_municipio":"Venustiano Carranza","es_cetram":false,"jerarquia_transporte":"masivo_pesado","linea_id":90,"nombre":"Oceanía","nombre_cetram":null,"num_comercial":"5","sistema":"METRO","tipo":"Superficie","tipo_entidad":"estacion"}},{"type":"Feature","geometry":{"type":"Point","coordinates":[-99.03334,19.52135]},"properties":{"alcaldia_municipio":"Ecatepec de Morelos","es_cetram":false,"jerarquia_transporte":"masivo_pesado","linea_id":84,"nombre":"Olímpica","nombre_cetram":null,"num_comercial":"B","sistema":"METRO","tipo":"Superficie","tipo_entidad":"estacion"}},{"type":"Feature","geometry":{"type":"Point","coordinates":[-99.05951,19.30432]},"properties":{"alcaldia_municipio":"Tláhuac","es_cetram":false,"jerarquia_transporte":"masivo_pesado","linea_id":301,"nombre":"Olivos","nombre_cetram":null,"num_comercial":"L12","sistema":"METRO","tipo":"Superficie","tipo_entidad":"estacion"}},{"type":"Feature","geometry":{"type":"Point","coordinates":[-99.20295,19.45864]},"properties":{"alcaldia_municipio":"Miguel Hidalgo","es_cetram":false,"jerarquia_transporte":"masivo_pesado","linea_id":93,"nombre":"Panteones","nombre_cetram":null,"num_comercial":"2","sistema":"METRO","tipo":"Superficie","tipo_entidad":"estacion"}},{"type":"Feature","geometry":{"type":"Point","coordinates":[-99.07192,19.4153]},"properties":{"alcaldia_municipio":"Iztacalco","es_cetram":false,"jerarquia_transporte":"masivo_pesado","linea_id":85,"nombre":"Pantitlán","nombre_cetram":null,"num_comercial":"A","sistema":"METRO","tipo":"Superficie","tipo_entidad":"estacion"}},{"type":"Feature","geometry":{"type":"Point","coordinates":[-99.07221,19.41535]},"properties":{"alcaldia_municipio":"Iztacalco","es_cetram":false,"jerarquia_transporte":"masivo_pesado","linea_id":86,"nombre":"Pantitlán","nombre_cetram":null,"num_comercial":"9","sistema":"METRO","tipo":"Superficie","tipo_entidad":"estacion"}},{"type":"Feature","geometry":{"type":"Point","coordinates":[-99.07433,19.4151]},"properties":{"alcaldia_municipio":"Venustiano Carranza","es_cetram":false,"jerarquia_transporte":"masivo_pesado","linea_id":90,"nombre":"Pantitlán","nombre_cetram":null,"num_comercial":"5","sistema":"METRO","tipo":"Superficie","tipo_entidad":"estacion"}},{"type":"Feature","geometry":{"type":"Point","coordinates":[-99.07474,19.41633]},"properties":{"alcaldia_municipio":"Venustiano Carranza","es_cetram":false,"jerarquia_transporte":"masivo_pesado","linea_id":191,"nombre":"Pantitlán","nombre_cetram":null,"num_comercial":"1","sistema":"METRO","tipo":"Superficie","tipo_entidad":"estacion"}},{"type":"Feature","geometry":{"type":"Point","coordinates":[-99.15872,19.37066]},"properties":{"alcaldia_municipio":"Benito Juárez","es_cetram":false,"jerarquia_transporte":"masivo_pesado","linea_id":301,"nombre":"Parque de los Venados","nombre_cetram":null,"num_comercial":"L12","sistema":"METRO","tipo":"Superficie","tipo_entidad":"estacion"}},{"type":"Feature","geometry":{"type":"Point","coordinates":[-99.17892,19.40611]},"properties":{"alcaldia_municipio":"Cuauhtémoc","es_cetram":false,"jerarquia_transporte":"masivo_pesado","linea_id":86,"nombre":"Patriotismo","nombre_cetram":null,"num_comercial":"9","sistema":"METRO","tipo":"Superficie","tipo_entidad":"estacion"}},{"type":"Feature","geometry":{"type":"Point","coordinates":[-99.01705,19.37331]},"properties":{"alcaldia_municipio":"Iztapalapa","es_cetram":false,"jerarquia_transporte":"masivo_pesado","linea_id":85,"nombre":"Penón Viejo","nombre_cetram":null,"num_comercial":"A","sistema":"METRO","tipo":"Superficie","tipo_entidad":"estacion"}},{"type":"Feature","geometry":{"type":"Point","coordinates":[-99.07451,19.31761]},"properties":{"alcaldia_municipio":"Iztapalapa","es_cetram":false,"jerarquia_transporte":"masivo_pesado","linea_id":301,"nombre":"Periférico Oriente","nombre_cetram":null,"num_comercial":"L12","sistema":"METRO","tipo":"Superficie","tipo_entidad":"estacion"}},{"type":"Feature","geometry":{"type":"Point","coordinates":[-99.13294,19.42438]},"properties":{"alcaldia_municipio":"Cuauhtémoc","es_cetram":false,"jerarquia_transporte":"masivo_pesado","linea_id":93,"nombre":"Pino Suárez","nombre_cetram":null,"num_comercial":"2","sistema":"METRO","tipo":"Superficie","tipo_entidad":"estacion"}},{"type":"Feature","geometry":{"type":"Point","coordinates":[-99.13264,19.42592]},"properties":{"alcaldia_municipio":"Cuauhtémoc","es_cetram":false,"jerarquia_transporte":"masivo_pesado","linea_id":191,"nombre":"Pino Suárez","nombre_cetram":null,"num_comercial":"1","sistema":"METRO","tipo":"Superficie","tipo_entidad":"estacion"}},{"type":"Feature","geometry":{"type":"Point","coordinates":[-99.03018,19.52848]},"properties":{"alcaldia_municipio":"Ecatepec de Morelos","es_cetram":false,"jerarquia_transporte":"masivo_pesado","linea_id":84,"nombre":"Plaza Aragón","nombre_cetram":null,"num_comercial":"B","sistema":"METRO","tipo":"Superficie","tipo_entidad":"estacion"}},{"type":"Feature","geometry":{"type":"Point","coordinates":[-99.19093,19.43355]},"properties":{"alcaldia_municipio":"Miguel Hidalgo","es_cetram":false,"jerarquia_transporte":"masivo_pesado","linea_id":88,"nombre":"Polanco","nombre_cetram":null,"num_comercial":"7","sistema":"METRO","tipo":"Superficie","tipo_entidad":"estacion"}},{"type":"Feature","geometry":{"type":"Point","coordinates":[-99.14921,19.50068]},"properties":{"alcaldia_municipio":"Gustavo A. Madero","es_cetram":false,"jerarquia_transporte":"masivo_pesado","linea_id":90,"nombre":"Politécnico","nombre_cetram":null,"num_comercial":"5","sistema":"METRO","tipo":"Superficie","tipo_entidad":"estacion"}},{"type":"Feature","geometry":{"type":"Point","coordinates":[-99.17549,19.45291]},"properties":{"alcaldia_municipio":"Miguel Hidalgo","es_cetram":false,"jerarquia_transporte":"masivo_pesado","linea_id":93,"nombre":"Popotla","nombre_cetram":null,"num_comercial":"2","sistema":"METRO","tipo":"Superficie","tipo_entidad":"estacion"}},{"type":"Feature","geometry":{"type":"Point","coordinates":[-99.14157,19.36992]},"properties":{"alcaldia_municipio":"Benito Juárez","es_cetram":false,"jerarquia_transporte":"masivo_pesado","linea_id":93,"nombre":"Portales","nombre_cetram":null,"num_comercial":"2","sistema":"METRO","tipo":"Superficie","tipo_entidad":"estacion"}},{"type":"Feature","geometry":{"type":"Point","coordinates":[-99.13201,19.47719]},"properties":{"alcaldia_municipio":"Gustavo A. Madero","es_cetram":false,"jerarquia_transporte":"masivo_pesado","linea_id":92,"nombre":"Potrero","nombre_cetram":null,"num_comercial":"3","sistema":"METRO","tipo":"Superficie","tipo_entidad":"estacion"}},{"type":"Feature","geometry":{"type":"Point","coordinates":[-99.08239,19.40719]},"properties":{"alcaldia_municipio":"Venustiano Carranza","es_cetram":false,"jerarquia_transporte":"masivo_pesado","linea_id":86,"nombre":"Puebla","nombre_cetram":null,"num_comercial":"9","sistema":"METRO","tipo":"Superficie","tipo_entidad":"estacion"}},{"type":"Feature","geometry":{"type":"Point","coordinates":[-99.19051,19.46947]},"properties":{"alcaldia_municipio":"Miguel Hidalgo","es_cetram":false,"jerarquia_transporte":"masivo_pesado","linea_id":88,"nombre":"Refinería","nombre_cetram":null,"num_comercial":"7","sistema":"METRO","tipo":"Superficie","tipo_entidad":"estacion"}},{"type":"Feature","geometry":{"type":"Point","coordinates":[-99.15423,19.43923]},"properties":{"alcaldia_municipio":"Cuauhtémoc","es_cetram":false,"jerarquia_transporte":"masivo_pesado","linea_id":93,"nombre":"Revolución","nombre_cetram":null,"num_comercial":"2","sistema":"METRO","tipo":"Superficie","tipo_entidad":"estacion"}},{"type":"Feature","geometry":{"type":"Point","coordinates":[-99.10371,19.43657]},"properties":{"alcaldia_municipio":"Venustiano Carranza","es_cetram":false,"jerarquia_transporte":"masivo_pesado","linea_id":84,"nombre":"Ricardo Flores Magón","nombre_cetram":null,"num_comercial":"B","sistema":"METRO","tipo":"Superficie","tipo_entidad":"estacion"}},{"type":"Feature","geometry":{"type":"Point","coordinates":[-99.04679,19.49069]},"properties":{"alcaldia_municipio":"Nezahualcóyotl","es_cetram":false,"jerarquia_transporte":"masivo_pesado","linea_id":84,"nombre":"Río de los Remedios","nombre_cetram":null,"num_comercial":"B","sistema":"METRO","tipo":"Superficie","tipo_entidad":"estacion"}},{"type":"Feature","geometry":{"type":"Point","coordinates":[-99.0942,19.44084]},"properties":{"alcaldia_municipio":"Venustiano Carranza","es_cetram":false,"jerarquia_transporte":"masivo_pesado","linea_id":84,"nombre":"Romero Rubio","nombre_cetram":null,"num_comercial":"B","sistema":"METRO","tipo":"Superficie","tipo_entidad":"estacion"}},{"type":"Feature","geometry":{"type":"Point","coordinates":[-99.14185,19.42772]},"properties":{"alcaldia_municipio":"Cuauhtémoc","es_cetram":false,"jerarquia_transporte":"masivo_pesado","linea_id":87,"nombre":"Salto del Agua","nombre_cetram":null,"num_comercial":"8","sistema":"METRO","tipo":"Superficie","tipo_entidad":"estacion"}},{"type":"Feature","geometry":{"type":"Point","coordinates":[-99.14341,19.42695]},"properties":{"alcaldia_municipio":"Cuauhtémoc","es_cetram":false,"jerarquia_transporte":"masivo_pesado","linea_id":191,"nombre":"Salto del Agua","nombre_cetram":null,"num_comercial":"1","sistema":"METRO","tipo":"Superficie","tipo_entidad":"estacion"}},{"type":"Feature","geometry":{"type":"Point","coordinates":[-99.10452,19.32815]},"properties":{"alcaldia_municipio":"Iztapalapa","es_cetram":false,"jerarquia_transporte":"masivo_pesado","linea_id":301,"nombre":"San Andrés Tomatlán","nombre_cetram":null,"num_comercial":"L12","sistema":"METRO","tipo":"Superficie","tipo_entidad":"estacion"}},{"type":"Feature","geometry":{"type":"Point","coordinates":[-99.18661,19.38434]},"properties":{"alcaldia_municipio":"Benito Juárez","es_cetram":false,"jerarquia_transporte":"masivo_pesado","linea_id":88,"nombre":"San Antonio","nombre_cetram":null,"num_comercial":"7","sistema":"METRO","tipo":"Superficie","tipo_entidad":"estacion"}},{"type":"Feature","geometry":{"type":"Point","coordinates":[-99.13454,19.41602]},"properties":{"alcaldia_municipio":"Cuauhtémoc","es_cetram":false,"jerarquia_transporte":"masivo_pesado","linea_id":93,"nombre":"San Antonio Abad","nombre_cetram":null,"num_comercial":"2","sistema":"METRO","tipo":"Superficie","tipo_entidad":"estacion"}},{"type":"Feature","geometry":{"type":"Point","coordinates":[-99.16066,19.4419]},"properties":{"alcaldia_municipio":"Cuauhtémoc","es_cetram":false,"jerarquia_transporte":"masivo_pesado","linea_id":93,"nombre":"San Cosme","nombre_cetram":null,"num_comercial":"2","sistema":"METRO","tipo":"Superficie","tipo_entidad":"estacion"}},{"type":"Feature","geometry":{"type":"Point","coordinates":[-99.19177,19.44501]},"properties":{"alcaldia_municipio":"Miguel Hidalgo","es_cetram":false,"jerarquia_transporte":"masivo_pesado","linea_id":88,"nombre":"San Joaquín","nombre_cetram":null,"num_comercial":"7","sistema":"METRO","tipo":"Superficie","tipo_entidad":"estacion"}},{"type":"Feature","geometry":{"type":"Point","coordinates":[-99.14125,19.43158]},"properties":{"alcaldia_municipio":"Cuauhtémoc","es_cetram":false,"jerarquia_transporte":"masivo_pesado","linea_id":87,"nombre":"San Juan de Letrán","nombre_cetram":null,"num_comercial":"8","sistema":"METRO","tipo":"Superficie","tipo_entidad":"estacion"}},{"type":"Feature","geometry":{"type":"Point","coordinates":[-99.11296,19.43237]},"properties":{"alcaldia_municipio":"Venustiano Carranza","es_cetram":false,"jerarquia_transporte":"masivo_pesado","linea_id":84,"nombre":"San Lázaro","nombre_cetram":null,"num_comercial":"B","sistema":"METRO","tipo":"Superficie","tipo_entidad":"estacion"}},{"type":"Feature","geometry":{"type":"Point","coordinates":[-99.11426,19.43006]},"properties":{"alcaldia_municipio":"Venustiano Carranza","es_cetram":false,"jerarquia_transporte":"masivo_pesado","linea_id":191,"nombre":"San Lázaro","nombre_cetram":null,"num_comercial":"1","sistema":"METRO","tipo":"Superficie","tipo_entidad":"estacion"}},{"type":"Feature","geometry":{"type":"Point","coordinates":[-99.18581,19.39149]},"properties":{"alcaldia_municipio":"Benito Juárez","es_cetram":false,"jerarquia_transporte":"masivo_pesado","linea_id":88,"nombre":"San Pedro de los Pinos","nombre_cetram":null,"num_comercial":"7","sistema":"METRO","tipo":"Superficie","tipo_entidad":"estacion"}},{"type":"Feature","geometry":{"type":"Point","coordinates":[-99.12066,19.40412]},"properties":{"alcaldia_municipio":"Iztacalco","es_cetram":false,"jerarquia_transporte":"masivo_pesado","linea_id":87,"nombre":"Santa Anita","nombre_cetram":null,"num_comercial":"8","sistema":"METRO","tipo":"Superficie","tipo_entidad":"estacion"}},{"type":"Feature","geometry":{"type":"Point","coordinates":[-99.1217,19.40289]},"properties":{"alcaldia_municipio":"Iztacalco","es_cetram":false,"jerarquia_transporte":"masivo_pesado","linea_id":91,"nombre":"Santa Anita","nombre_cetram":null,"num_comercial":"4","sistema":"METRO","tipo":"Superficie","tipo_entidad":"estacion"}},{"type":"Feature","geometry":{"type":"Point","coordinates":[-98.99518,19.36031]},"properties":{"alcaldia_municipio":"Iztapalapa","es_cetram":false,"jerarquia_transporte":"masivo_pesado","linea_id":85,"nombre":"Santa Marta","nombre_cetram":null,"num_comercial":"A","sistema":"METRO","tipo":"Superficie","tipo_entidad":"estacion"}},{"type":"Feature","geometry":{"type":"Point","coordinates":[-99.17112,19.42185]},"properties":{"alcaldia_municipio":"Cuauhtémoc","es_cetram":false,"jerarquia_transporte":"masivo_pesado","linea_id":191,"nombre":"Sevilla","nombre_cetram":null,"num_comercial":"1","sistema":"METRO","tipo":"Superficie","tipo_entidad":"estacion"}},{"type":"Feature","geometry":{"type":"Point","coordinates":[-99.18717,19.45823]},"properties":{"alcaldia_municipio":"Miguel Hidalgo","es_cetram":false,"jerarquia_transporte":"masivo_pesado","linea_id":88,"nombre":"Tacuba","nombre_cetram":null,"num_comercial":"7","sistema":"METRO","tipo":"Superficie","tipo_entidad":"estacion"}},{"type":"Feature","geometry":{"type":"Point","coordinates":[-99.18823,19.45938]},"properties":{"alcaldia_municipio":"Miguel Hidalgo","es_cetram":false,"jerarquia_transporte":"masivo_pesado","linea_id":93,"nombre":"Tacuba","nombre_cetram":null,"num_comercial":"2","sistema":"METRO","tipo":"Superficie","tipo_entidad":"estacion"}},{"type":"Feature","geometry":{"type":"Point","coordinates":[-99.18776,19.40146]},"properties":{"alcaldia_municipio":"Miguel Hidalgo","es_cetram":true,"jerarquia_transporte":"masivo_pesado","linea_id":86,"nombre":"Tacubaya","nombre_cetram":"Tacubaya","num_comercial":"9","sistema":"METRO","tipo":"Subterráneo","tipo_entidad":"estacion"}},{"type":"Feature","geometry":{"type":"Point","coordinates":[-99.18675,19.40219]},"properties":{"alcaldia_municipio":"Miguel Hidalgo","es_cetram":false,"jerarquia_transporte":"masivo_pesado","linea_id":88,"nombre":"Tacubaya","nombre_cetram":null,"num_comercial":"7","sistema":"METRO","tipo":"Subterráneo","tipo_entidad":"estacion"}},{"type":"Feature","geometry":{"type":"Point","coordinates":[-99.18764,19.40251]},"properties":{"alcaldia_municipio":"Miguel Hidalgo","es_cetram":false,"jerarquia_transporte":"masivo_pesado","linea_id":191,"nombre":"Tacubaya","nombre_cetram":null,"num_comercial":"1","sistema":"METRO","tipo":"Subterráneo","tipo_entidad":"estacion"}},{"type":"Feature","geometry":{"type":"Point","coordinates":[-99.10801,19.47436]},"properties":{"alcaldia_municipio":"Gustavo A. Madero","es_cetram":false,"jerarquia_transporte":"masivo_pesado","linea_id":91,"nombre":"Talismán","nombre_cetram":null,"num_comercial":"4","sistema":"METRO","tipo":"Superficie","tipo_entidad":"estacion"}},{"type":"Feature","geometry":{"type":"Point","coordinates":[-99.13953,19.34376]},"properties":{"alcaldia_municipio":"Coyoacán","es_cetram":false,"jerarquia_transporte":"masivo_pesado","linea_id":93,"nombre":"Tasqueña","nombre_cetram":null,"num_comercial":"2","sistema":"METRO","tipo":"Superficie","tipo_entidad":"estacion"}},{"type":"Feature","geometry":{"type":"Point","coordinates":[-99.04633,19.39128]},"properties":{"alcaldia_municipio":"Iztapalapa","es_cetram":false,"jerarquia_transporte":"masivo_pesado","linea_id":85,"nombre":"Tepalcates","nombre_cetram":null,"num_comercial":"A","sistema":"METRO","tipo":"Superficie","tipo_entidad":"estacion"}},{"type":"Feature","geometry":{"type":"Point","coordinates":[-99.12407,19.44279]},"properties":{"alcaldia_municipio":"Cuauhtémoc","es_cetram":false,"jerarquia_transporte":"masivo_pesado","linea_id":84,"nombre":"Tepito","nombre_cetram":null,"num_comercial":"B","sistema":"METRO","tipo":"Superficie","tipo_entidad":"estacion"}},{"type":"Feature","geometry":{"type":"Point","coordinates":[-99.08808,19.43427]},"properties":{"alcaldia_municipio":"Venustiano Carranza","es_cetram":false,"jerarquia_transporte":"masivo_pesado","linea_id":90,"nombre":"Terminal Aérea","nombre_cetram":null,"num_comercial":"5","sistema":"METRO","tipo":"Superficie","tipo_entidad":"estacion"}},{"type":"Feature","geometry":{"type":"Point","coordinates":[-99.06527,19.30631]},"properties":{"alcaldia_municipio":"Iztapalapa","es_cetram":false,"jerarquia_transporte":"masivo_pesado","linea_id":301,"nombre":"Tezonco","nombre_cetram":null,"num_comercial":"L12","sistema":"METRO","tipo":"Superficie","tipo_entidad":"estacion"}},{"type":"Feature","geometry":{"type":"Point","coordinates":[-99.19602,19.4949]},"properties":{"alcaldia_municipio":"Azcapotzalco","es_cetram":false,"jerarquia_transporte":"masivo_pesado","linea_id":89,"nombre":"Tezozómoc","nombre_cetram":null,"num_comercial":"6","sistema":"METRO","tipo":"Superficie","tipo_entidad":"estacion"}},{"type":"Feature","geometry":{"type":"Point","coordinates":[-99.0142,19.28602]},"properties":{"alcaldia_municipio":"Tláhuac","es_cetram":false,"jerarquia_transporte":"masivo_pesado","linea_id":301,"nombre":"Tláhuac","nombre_cetram":null,"num_comercial":"L12","sistema":"METRO","tipo":"Superficie","tipo_entidad":"estacion"}},{"type":"Feature","geometry":{"type":"Point","coordinates":[-99.02403,19.29435]},"properties":{"alcaldia_municipio":"Tláhuac","es_cetram":false,"jerarquia_transporte":"masivo_pesado","linea_id":301,"nombre":"Tlaltenco","nombre_cetram":null,"num_comercial":"L12","sistema":"METRO","tipo":"Superficie","tipo_entidad":"estacion"}},{"type":"Feature","geometry":{"type":"Point","coordinates":[-99.14313,19.45506]},"properties":{"alcaldia_municipio":"Cuauhtémoc","es_cetram":false,"jerarquia_transporte":"masivo_pesado","linea_id":92,"nombre":"Tlatelolco","nombre_cetram":null,"num_comercial":"3","sistema":"METRO","tipo":"Superficie","tipo_entidad":"estacion"}},{"type":"Feature","geometry":{"type":"Point","coordinates":[-99.18627,19.49091]},"properties":{"alcaldia_municipio":"Azcapotzalco","es_cetram":false,"jerarquia_transporte":"masivo_pesado","linea_id":89,"nombre":"UAM Azcapotzalco","nombre_cetram":null,"num_comercial":"6","sistema":"METRO","tipo":"Subterráneo","tipo_entidad":"estacion"}},{"type":"Feature","geometry":{"type":"Point","coordinates":[-99.07482,19.35106]},"properties":{"alcaldia_municipio":"Iztapalapa","es_cetram":false,"jerarquia_transporte":"masivo_pesado","linea_id":87,"nombre":"UAM-I","nombre_cetram":null,"num_comercial":"8","sistema":"METRO","tipo":"Superficie","tipo_entidad":"estacion"}},{"type":"Feature","geometry":{"type":"Point","coordinates":[-99.17394,19.32435]},"properties":{"alcaldia_municipio":"Coyoacán","es_cetram":true,"jerarquia_transporte":"masivo_pesado","linea_id":92,"nombre":"Universidad","nombre_cetram":"Universidad","num_comercial":"3","sistema":"METRO","tipo":"Superficie","tipo_entidad":"estacion"}},{"type":"Feature","geometry":{"type":"Point","coordinates":[-99.11949,19.45887]},"properties":{"alcaldia_municipio":"Gustavo A. Madero","es_cetram":false,"jerarquia_transporte":"masivo_pesado","linea_id":90,"nombre":"Valle Gómez","nombre_cetram":null,"num_comercial":"5","sistema":"METRO","tipo":"Superficie","tipo_entidad":"estacion"}},{"type":"Feature","geometry":{"type":"Point","coordinates":[-99.156,19.48985]},"properties":{"alcaldia_municipio":"Azcapotzalco","es_cetram":false,"jerarquia_transporte":"masivo_pesado","linea_id":89,"nombre":"Vallejo","nombre_cetram":null,"num_comercial":"6","sistema":"METRO","tipo":"Superficie","tipo_entidad":"estacion"}},{"type":"Feature","geometry":{"type":"Point","coordinates":[-99.10316,19.40854]},"properties":{"alcaldia_municipio":"Venustiano Carranza","es_cetram":false,"jerarquia_transporte":"masivo_pesado","linea_id":86,"nombre":"Velódromo","nombre_cetram":null,"num_comercial":"9","sistema":"METRO","tipo":"Superficie","tipo_entidad":"estacion"}},{"type":"Feature","geometry":{"type":"Point","coordinates":[-99.1369,19.40087]},"properties":{"alcaldia_municipio":"Benito Juárez","es_cetram":false,"jerarquia_transporte":"masivo_pesado","linea_id":93,"nombre":"Viaducto","nombre_cetram":null,"num_comercial":"2","sistema":"METRO","tipo":"Superficie","tipo_entidad":"estacion"}},{"type":"Feature","geometry":{"type":"Point","coordinates":[-99.06138,19.46167]},"properties":{"alcaldia_municipio":"Gustavo A. Madero","es_cetram":false,"jerarquia_transporte":"masivo_pesado","linea_id":84,"nombre":"Villa de Aragón","nombre_cetram":null,"num_comercial":"B","sistema":"METRO","tipo":"Superficie","tipo_entidad":"estacion"}},{"type":"Feature","geometry":{"type":"Point","coordinates":[-99.13896,19.38758]},"properties":{"alcaldia_municipio":"Benito Juárez","es_cetram":false,"jerarquia_transporte":"masivo_pesado","linea_id":93,"nombre":"Villa de Cortés","nombre_cetram":null,"num_comercial":"2","sistema":"METRO","tipo":"Superficie","tipo_entidad":"estacion"}},{"type":"Feature","geometry":{"type":"Point","coordinates":[-99.176,19.35346]},"properties":{"alcaldia_municipio":"Álvaro Obregón","es_cetram":false,"jerarquia_transporte":"masivo_pesado","linea_id":92,"nombre":"Viveros y  Derechos Humanos","nombre_cetram":null,"num_comercial":"3","sistema":"METRO","tipo":"Subterráneo","tipo_entidad":"estacion"}},{"type":"Feature","geometry":{"type":"Point","coordinates":[-99.13781,19.39521]},"properties":{"alcaldia_municipio":"Benito Juárez","es_cetram":false,"jerarquia_transporte":"masivo_pesado","linea_id":93,"nombre":"Xola","nombre_cetram":null,"num_comercial":"2","sistema":"METRO","tipo":"Superficie","tipo_entidad":"estacion"}},{"type":"Feature","geometry":{"type":"Point","coordinates":[-99.16451,19.37119]},"properties":{"alcaldia_municipio":"Benito Juárez","es_cetram":false,"jerarquia_transporte":"masivo_pesado","linea_id":92,"nombre":"Zapata","nombre_cetram":null,"num_comercial":"3","sistema":"METRO","tipo":"Superficie","tipo_entidad":"estacion"}},{"type":"Feature","geometry":{"type":"Point","coordinates":[-99.1656,19.37085]},"properties":{"alcaldia_municipio":"Benito Juárez","es_cetram":false,"jerarquia_transporte":"masivo_pesado","linea_id":301,"nombre":"Zapata","nombre_cetram":null,"num_comercial":"L12","sistema":"METRO","tipo":"Superficie","tipo_entidad":"estacion"}},{"type":"Feature","geometry":{"type":"Point","coordinates":[-99.03431,19.29666]},"properties":{"alcaldia_municipio":"Tláhuac","es_cetram":false,"jerarquia_transporte":"masivo_pesado","linea_id":301,"nombre":"Zapotitlán","nombre_cetram":null,"num_comercial":"L12","sistema":"METRO","tipo":"Superficie","tipo_entidad":"estacion"}},{"type":"Feature","geometry":{"type":"Point","coordinates":[-99.08229,19.41192]},"properties":{"alcaldia_municipio":"Venustiano Carranza","es_cetram":false,"jerarquia_transporte":"masivo_pesado","linea_id":191,"nombre":"Zaragoza","nombre_cetram":null,"num_comercial":"1","sistema":"METRO","tipo":"Superficie","tipo_entidad":"estacion"}},{"type":"Feature","geometry":{"type":"Point","coordinates":[-99.13225,19.4325]},"properties":{"alcaldia_municipio":"Cuauhtémoc","es_cetram":false,"jerarquia_transporte":"masivo_pesado","linea_id":93,"nombre":"Zócalo","nombre_cetram":null,"num_comercial":"2","sistema":"METRO","tipo":"Subterráneo","tipo_entidad":"estacion"}}]}